,City,Cloudiness,Country,Date,Humidity,Lat,Lng,Max Temp,Wind Speed
0,saint george,0,GR,1562034588,72,39.45,22.34,75,0.69
1,taolanaro,,,,,,,,
2,ancud,40,CL,1562034870,93,-41.87,-73.83,37.4,5.82
3,nassau,0,AT,1562034588,82,46.81,15.34,69.01,1.12
4,georgetown,40,GY,1562034614,94,6.8,-58.16,77,2.24
5,qaanaaq,0,GL,1562034589,49,77.48,-69.36,48.34,8.34
6,lompoc,20,US,1562034589,72,34.64,-120.46,75,16.11
7,atuona,0,PF,1562034590,75,-9.8,-139.03,80.83,15.37
8,arraial do cabo,0,BR,1562034872,94,-22.97,-42.02,68,4.7
9,castro,40,CL,1562034872,93,-42.48,-73.76,37.4,5.82
10,requena,75,ES,1562034873,83,39.49,-1.1,77,3.36
11,punta arenas,40,CL,1562034873,80,-53.16,-70.91,35.6,10.29
12,ushuaia,90,AR,1562034873,93,-54.81,-68.31,37.4,4.7
13,sorland,94,NO,1562034591,67,67.67,12.69,46.2,5.93
14,muli,6,CN,1562034874,52,28.08,109.56,81.73,7.09
15,carnarvon,0,ZA,1562034874,89,-30.97,22.13,32.25,6.51
16,ahipara,16,NZ,1562034875,80,-35.17,173.16,61.84,14.36
17,yellowknife,75,CA,1562034593,76,62.45,-114.38,53.6,24.16
18,nikolskoye,20,RU,1562034875,77,59.7,30.79,61,8.95
19,zabaykalsk,23,CN,1562034875,30,49.64,117.33,79.44,12.28
20,albany,75,US,1562034610,53,42.65,-73.75,73.99,9.17
21,mareeba,90,AU,1562034876,64,-16.99,145.42,78.01,11.41
22,rikitea,100,PF,1562034594,71,-23.12,-134.97,69.25,16.37
23,nosy varika,98,MG,1562034876,89,-20.58,48.53,65.15,5.7
24,saint-georges,100,CA,1562034877,100,46.12,-70.67,66,1.01
25,poum,20,MK,1562034877,87,41.28,20.71,55.4,3.36
26,dunedin,74,NZ,1562034877,66,-45.87,170.5,53.01,15.01
27,taltal,100,CL,1562034878,83,-25.41,-70.49,50.25,1.81
28,phayao,100,TH,1562034597,97,19.17,99.9,68.93,2.28
29,pringsewu,94,ID,1562034878,74,-5.36,104.98,78.85,3.15
30,belushya guba,,,,,,,,
31,busselton,100,AU,1562034879,48,-33.64,115.35,64,6.53
32,cap malheureux,75,MU,1562034661,68,-19.98,57.61,71.6,17.22
33,hilo,75,US,1562034600,69,19.71,-155.08,80.6,14.99
34,provideniya,90,RU,1562034599,81,64.42,-173.23,48.2,11.18
35,vaini,75,IN,1562034600,100,15.34,74.49,71.6,5.82
36,agirish,87,RU,1562034880,57,61.92,63.02,69.43,9.8
37,high prairie,68,CA,1562034600,75,55.43,-116.48,53.18,8.46
38,pombas,0,BR,1562034881,52,-15.9,-54.74,67.04,2.91
39,kouango,100,CF,1562034601,95,4.99,19.98,70.21,2.62
40,sovetskiy,0,RU,1562034881,81,56.76,48.47,55.81,1.21
41,bethel,90,US,1562034881,100,60.79,-161.76,55.4,11.41
42,butaritari,82,KI,1562034882,70,3.07,172.79,84.75,8.81
43,cabo san lucas,5,MX,1562034779,57,22.89,-109.91,80.6,11.41
44,mataura,100,NZ,1562034882,74,-46.19,168.86,57,1.01
45,kapaa,20,US,1562034883,70,22.08,-159.32,84.2,10.29
46,nome,1,US,1562034883,88,30.04,-94.42,82.99,3.36
47,aklavik,90,CA,1562034883,93,68.22,-135.01,51.8,3.36
48,marcona,,,,,,,,
49,hobart,20,AU,1562034884,54,-42.88,147.33,53.6,26.4
50,hithadhoo,93,MV,1562034885,71,-0.6,73.08,83.37,6.96
51,vilyuysk,12,RU,1562034609,37,63.75,121.63,64.54,12.28
52,formoso do araguaia,,,,,,,,
53,chuy,0,UY,1562034886,81,-33.69,-53.46,42.18,12.19
54,sikasso,28,ML,1562034886,73,11.32,-5.68,76.44,4.97
55,sanming,77,CN,1562034611,67,26.24,117.6,85.44,7.9
56,cheremkhovo,59,RU,1562034887,49,53.15,103.07,75.99,14.56
57,ca mau,100,VN,1562034887,67,9.18,105.15,87.67,11.77
58,aksu,0,KZ,1562034679,63,52.04,76.93,66.2,11.18
59,gigmoto,100,PH,1562034888,75,13.78,124.39,82.54,17.2
60,barrow,100,AR,1562034612,44,-38.31,-60.23,50.16,18.28
61,san cristobal,0,HN,1562034888,93,14.68,-86.92,67.17,4.99
62,port alfred,0,ZA,1562034889,72,-33.59,26.89,53.01,3
63,vila velha,75,BR,1562034613,65,-3.71,-38.6,80.6,12.75
64,hermanus,79,ZA,1562034889,61,-34.42,19.24,60.01,14
65,kaitangata,100,NZ,1562034890,75,-46.28,169.85,52.46,4.07
66,tsihombe,,,,,,,,
67,new norfolk,20,AU,1562034890,54,-42.78,147.06,53.6,26.4
68,brae,32,GB,1562034890,87,60.4,-1.35,48.2,5.82
69,jalu,0,LY,1562034891,53,29.03,21.55,74.22,10.51
70,barentsburg,,,,,,,,
71,sajanan,0,TN,1562034616,50,37.06,9.24,75.2,9.17
72,ondangwa,0,NA,1562034892,13,-17.91,15.98,60.8,6.93
73,namibe,0,AO,1562034892,79,-15.19,12.15,67.65,11.63
74,le creusot,0,FR,1562034893,88,46.81,4.43,64.99,2.24
75,airai,64,TL,1562034894,50,-8.93,125.41,84.79,2.8
76,qingyuan,85,CN,1562034894,62,27.62,119.06,84.64,5.55
77,ghanzi,0,BW,1562034895,58,-21.7,21.65,37.77,6.93
78,honiara,75,SB,1562034895,79,-9.43,159.96,86,11.41
79,bredasdorp,28,ZA,1562034599,71,-34.53,20.04,60.01,9.17
80,lerwick,32,GB,1562034895,70,60.15,-1.15,48.2,11.41
81,port hedland,0,AU,1562034690,16,-20.31,118.58,78.8,14.99
82,mrirt,,,,,,,,
83,baghdad,0,IQ,1562034896,27,33.3,44.38,75.2,9.17
84,bengkulu,,,,,,,,
85,jujuy,,,,,,,,
86,east london,0,ZA,1562034798,55,-33.02,27.91,51.31,10.29
87,bemidji,1,US,1562034897,68,47.48,-94.89,75.2,3.44
88,saint anthony,1,US,1562034898,26,43.97,-111.68,80.6,6.93
89,veraval,0,FR,1562034898,93,49.65,0.71,55.4,3.36
90,havelock,1,US,1562034898,65,34.88,-76.9,80.6,4.7
91,solnechnyy,4,RU,1562034622,45,50.72,136.64,73.7,5.55
92,bambous virieux,75,MU,1562034899,68,-20.34,57.76,71.6,17.22
93,grand river south east,,,,,,,,
94,itoman,20,JP,1562034899,74,26.12,127.67,89.6,17.22
95,katsuura,75,JP,1562034899,83,33.93,134.5,77,6.93
96,leningradskiy,100,RU,1562034900,97,69.38,178.42,37.84,4.38
97,coihaique,90,CL,1562034900,98,-45.58,-72.07,37.4,5.82
98,jamestown,0,AU,1562034900,52,-33.21,138.6,56.2,5.41
99,khatanga,33,RU,1562034901,36,71.98,102.47,56.85,4.99
100,tlahualilo,,,,,,,,
101,svetlogorsk,90,RU,1562034902,100,53.14,59.15,59,4.47
102,alta gracia,0,AR,1562034903,40,-31.66,-64.43,53.6,13.87
103,cleburne,1,US,1562034903,94,32.35,-97.39,82.99,9.17
104,vostok,100,RU,1562034903,94,46.45,135.83,58.8,3.6
105,puerto quijarro,54,BO,1562034904,80,-19,-57.72,65.42,5.48
106,oussouye,76,SN,1562034627,86,12.49,-16.54,77.79,6.08
107,kerteh,,,,,,,,
108,kununurra,0,AU,1562034904,25,-15.77,128.74,84.2,13.87
109,schwedt,,,,,,,,
110,ponta do sol,0,BR,1562034905,64,-20.63,-46,61.03,2.8
111,manta,0,RO,1562034905,80,45.1,24.1,64.36,2.13
112,nizhniy kuranakh,100,RU,1562034906,41,58.84,125.49,76.99,3.44
113,saskylakh,77,RU,1562034906,55,71.97,114.09,48.93,14.41
114,waingapu,100,ID,1562034906,62,-9.65,120.26,81.35,13.13
115,kavaratti,100,IN,1562034630,77,10.57,72.64,83.46,21.03
116,kupang,20,ID,1562034907,48,-10.16,123.6,86,13.87
117,cape town,75,ZA,1562034710,93,-33.93,18.42,59,12.75
118,wilmington,1,US,1562034853,68,39.75,-75.55,73.99,3.36
119,puerto escondido,75,MX,1562034907,83,15.86,-97.07,82.4,3.36
120,mayumba,10,GA,1562034632,88,-3.44,10.65,71.09,6.38
121,lorengau,1,PG,1562034908,77,-2.02,147.27,82.75,6.91
122,bluff,100,AU,1562034908,44,-23.58,149.07,72.78,7.72
123,jiexiu,5,CN,1562034909,23,37.02,111.92,88.98,10.94
124,thompson,90,CA,1562034689,82,55.74,-97.86,55.4,10.29
125,talcahuano,75,CL,1562034909,93,-36.72,-73.12,44.6,6.93
126,jabiru,,,,,,,,
127,galgani,,,,,,,,
128,tucumcari,75,US,1562034910,30,35.17,-103.73,84.2,11.41
129,mwinilunga,96,ZM,1562034910,46,-11.73,24.43,50.84,5.14
130,viligili,,,,,,,,
131,jiangyou,66,CN,1562034636,56,31.78,104.73,78,3.94
132,balykshi,,,,,,,,
133,cottonwood,1,US,1562034637,14,34.74,-112.01,89.6,10.29
134,san patricio,100,PY,1562034912,91,-26.98,-56.83,50.95,3.09
135,eldikan,,,,,,,,
136,saint-louis,99,SN,1562034693,81,16.03,-16.5,72.44,9.17
137,jibuti,,,,,,,,
138,vetlanda,94,SE,1562034913,100,57.43,15.09,55.4,10.29
139,olafsvik,,,,,,,,
140,tasiilaq,93,GL,1562034913,85,65.61,-37.64,32.12,4.52
141,severo-kurilsk,100,RU,1562034913,92,50.68,156.12,44.95,6.44
142,codrington,44,AU,1562034639,68,-28.95,153.24,70,1.12
143,keskin,0,TR,1562034640,63,39.67,33.62,55.99,1.01
144,namatanai,76,PG,1562034914,86,-3.66,152.44,78.34,11.14
145,kollam,75,IN,1562034914,83,8.88,76.6,82.4,2.24
146,port elizabeth,1,US,1562034915,88,39.31,-74.98,75.2,3.36
147,kodiak,1,US,1562034915,42,39.95,-94.76,84,8.05
148,petropavlovsk-kamchatskiy,34,RU,1562034916,67,53.05,158.65,60.8,15.66
149,narsaq,100,GL,1562034916,87,60.91,-46.05,44.6,4.7
150,sao filipe,0,CV,1562034917,87,14.9,-24.5,73.11,21.34
151,ouadda,100,CF,1562034918,98,8.07,22.4,66.57,1.66
152,anadyr,20,RU,1562034918,71,64.73,177.51,57.2,20.13
153,saint-philippe,90,CA,1562034918,60,45.36,-73.48,75.99,11.41
154,elat,89,CM,1562034919,99,2.91,11.16,68.95,2.35
155,aden,0,YE,1562034919,63,12.79,45.03,88.28,5.86
156,verkhoyansk,97,RU,1562034919,53,67.55,133.39,55.83,9.84
157,sao joao da barra,0,BR,1562034645,80,-21.64,-41.05,68.8,3.8
158,hauterive,20,CA,1562034920,93,49.18,-68.27,53.6,2.24
159,cherskiy,92,RU,1562034919,65,68.75,161.3,52.12,6.38
160,yar-sale,0,RU,1562034646,58,66.83,70.83,74.58,14.65
161,lebu,75,ET,1562034652,93,8.96,38.73,57.2,4.7
162,saleaula,,,,,,,,
163,celestun,89,MX,1562034921,83,20.87,-90.4,82.05,23.76
164,naze,75,NG,1562034921,94,5.43,7.07,73.4,3.15
165,christchurch,100,NZ,1562034821,76,-43.53,172.64,59,3.36
166,tiksi,100,RU,1562034922,85,71.64,128.87,38.6,12.12
167,lagoa,0,PT,1562034785,64,37.14,-8.45,68,4.7
168,tilichiki,100,RU,1562034922,70,60.47,166.1,57.03,6.82
169,antalaha,7,MG,1562034923,94,-14.9,50.28,57.64,4.59
170,baishishan,0,CN,1562034923,56,43.58,127.55,73.12,8.28
171,ribeira grande,100,PT,1562034923,92,38.52,-28.7,68.59,9.64
172,hasaki,75,JP,1562034924,88,35.73,140.83,80.6,1.12
173,luderitz,0,NA,1562034924,71,-26.65,15.16,53.6,5.82
174,comodoro rivadavia,20,AR,1562034924,75,-45.87,-67.48,41,11.41
175,corinto,40,CO,1562034925,83,3.17,-76.26,71.6,4.7
176,buraydah,0,SA,1562034925,27,26.33,43.97,87.8,6.93
177,amderma,,,,,,,,
178,vaitupu,,,,,,,,
179,barbate,20,ES,1562034926,82,36.19,-5.92,69.8,8.05
180,kichmengskiy gorodok,0,RU,1562034926,76,59.99,45.81,54.06,5.79
181,broome,0,GB,1562034926,87,52.47,1.45,57,8.05
182,pacific grove,1,US,1562034653,67,36.62,-121.92,73.4,8.05
183,amalapuram,90,IN,1562034927,83,16.58,82,82.4,12.75
184,takoradi,97,GH,1562034927,92,4.89,-1.75,75.01,3.38
185,palmer,75,AU,1562034928,62,-34.85,139.16,57.99,8.05
186,yarada,75,IN,1562034928,74,17.65,83.27,84.2,10.29
187,arkansas city,1,US,1562034654,69,37.06,-97.04,82.99,5.82
188,ucluelet,75,CA,1562034929,82,48.94,-125.55,68,13.87
189,dolbeau,,,,,,,,
190,bafata,100,GW,1562034929,90,12.17,-14.67,76.11,5.03
191,coquimbo,0,CL,1562034930,87,-29.95,-71.34,48.2,4.7
192,seoul,75,KR,1562034669,57,37.57,126.98,80.6,3.36
193,bodden town,20,KY,1562034930,83,19.28,-81.25,84.2,9.17
194,atherton,90,AU,1562034930,64,-17.27,145.48,78.01,11.41
195,taoru,40,IN,1562034931,43,28.22,76.95,89.6,5.82
196,tevriz,0,RU,1562034931,57,57.51,72.4,70.12,4.81
197,phuket,40,TH,1562034827,66,7.89,98.4,87.8,5.82
198,san rafael,55,AR,1562034932,29,-34.61,-68.33,45.69,3.06
199,chiriqui grande,100,PA,1562034932,60,8.95,-82.12,60.01,5.99
200,puerto ayora,44,EC,1562034933,94,-0.74,-90.35,71.01,10.87
201,faanui,88,PF,1562034678,79,-16.48,-151.75,77.73,25.17
202,tuatapere,100,NZ,1562034660,74,-46.13,167.69,57,1.01
203,korla,,,,,,,,
204,mtambile,4,TZ,1562034934,79,-5.38,39.7,78.4,10.98
205,kruisfontein,1,ZA,1562034935,76,-34,24.73,46.25,8.25
206,kazalinsk,,,,,,,,
207,olinda,40,AU,1562034935,67,-37.84,145.39,61,12.75
208,lavrentiya,100,RU,1562034935,78,65.58,-170.99,46.03,13.69
209,aflu,,,,,,,,
210,vallenar,0,CL,1562034936,76,-28.58,-70.76,45.39,2.33
211,trairi,31,BR,1562034936,95,-3.28,-39.27,70.41,4.25
212,madang,100,CN,1562034937,71,35.32,102.79,54.84,3.51
213,maceio,0,BR,1562034937,94,-9.67,-35.74,69.8,1.12
214,olovyannaya,24,RU,1562034937,42,50.94,115.59,78.07,8.01
215,pitogo,100,PH,1562034938,82,13.79,122.09,81.26,11.41
216,bilibino,100,RU,1562034938,89,68.06,166.44,43.46,5.17
217,zhigansk,86,RU,1562034938,48,66.77,123.37,53.22,19.35
218,sitka,0,US,1562034938,65,37.17,-99.65,78.01,8.99
219,abu dhabi,0,AE,1562034939,84,24.47,54.37,87.8,6.93
220,dalvik,48,SE,1562034666,93,57.79,14.13,55,14.99
221,nyurba,99,RU,1562034666,42,63.29,118.35,69.22,8.79
222,maarianhamina,,,,,,,,
223,hofn,0,IS,1562034697,71,64.25,-15.21,31.65,13.11
224,mys shmidta,,,,,,,,
225,flinders,0,AU,1562034940,25,-34.58,150.85,66,11.41
226,salinas,1,US,1562034941,56,36.67,-121.66,71.01,13.87
227,tabas,0,IR,1562034941,27,33.6,56.92,86,2.24
228,uige,0,AO,1562034668,89,-7.61,15.06,61.1,1.21
229,starosubkhangulovo,100,RU,1562034941,99,53.1,57.43,52.6,6.29
230,amahai,73,ID,1562034942,88,-3.31,129,77.82,12.93
231,morondava,5,MG,1562034942,92,-20.3,44.28,73.3,11.48
232,fort nelson,40,CA,1562034669,30,58.81,-122.69,71.6,16.11
233,vigrestad,75,NO,1562034943,76,58.57,5.7,50,14.99
234,guerrero negro,0,MX,1562034670,74,27.97,-114.04,68.71,21.83
235,dikson,100,RU,1562034943,94,73.51,80.55,42.81,13.8
236,kudahuvadhoo,100,MV,1562034943,62,2.67,72.89,83.37,0.85
237,esperance,75,AU,1562034944,59,-33.86,121.89,60.8,10.29
238,slave lake,90,CA,1562034944,62,55.28,-114.77,55.4,23.04
239,santa fe,0,AR,1562034944,76,-31.62,-60.7,50,3
240,svetlaya,100,RU,1562034672,98,46.54,138.33,50.32,2.84
241,lethem,100,GY,1562034672,86,3.38,-59.8,75.95,6.17
242,monrovia,75,LR,1562034673,94,6.33,-10.8,77,6.58
243,marystown,100,CA,1562034945,95,47.17,-55.16,53.74,17.36
244,mar del plata,44,AR,1562034674,62,-46.43,-67.52,35.58,14.12
245,morro bay,1,US,1562034946,77,35.37,-120.85,87.01,6.93
246,itarema,0,BR,1562034946,90,-2.92,-39.92,72.46,4.74
247,chalon-sur-saone,0,FR,1562034946,72,46.78,4.85,66.2,9.17
248,bolungarvik,,,,,,,,
249,ugoofaaru,74,MV,1562034947,75,5.67,73,82.77,10.16
250,larsnes,35,NO,1562034948,70,62.2,5.58,46.4,13.87
251,derzhavinsk,98,KZ,1562034949,38,51.1,66.31,76.85,18.16
252,sorong,98,ID,1562034677,73,-0.86,131.25,83.96,4.45
253,fairbanks,90,US,1562034949,42,64.84,-147.72,68,12.75
254,hohhot,40,CN,1562034950,56,40.81,111.65,71.6,2.24
255,ostrovnoy,88,RU,1562034950,71,68.05,39.51,50.48,12.33
256,katobu,100,ID,1562034950,97,-4.94,122.53,72.78,4.85
257,longyearbyen,75,NO,1562034698,76,78.22,15.63,48.2,23.04
258,talnakh,0,RU,1562034734,59,69.49,88.39,60.8,4.47
259,gasa,95,BT,1562034680,69,27.91,89.73,47.02,4.68
260,buala,90,SB,1562034951,78,-8.15,159.59,81.94,3.67
261,warrington,0,GB,1562034953,76,53.39,-2.59,55.4,8.05
262,saint-francois,0,FR,1562034953,88,46.42,3.91,64.4,2.24
263,constitucion,40,MX,1562034954,42,23.99,-104.67,66.2,11.41
264,omboue,57,GA,1562034954,85,-1.57,9.26,72.85,15.37
265,macaubas,0,BR,1562034682,64,-13.02,-42.7,66.73,4.56
266,beringovskiy,98,RU,1562034954,73,63.05,179.32,52.42,6.11
267,el badari,,,,,,,,
268,aleksandrovskoye,0,RU,1562034955,72,56.74,85.39,64.4,8.95
269,baykit,0,RU,1562034683,25,61.68,96.39,87.63,7.11
270,san jose,20,HN,1562034683,61,14.25,-87.96,80.6,4.7
271,upernavik,4,GL,1562034956,80,72.79,-56.15,41.52,6.15
272,clyde river,1,CA,1562034664,75,70.47,-68.59,41,8.05
273,goderich,60,CA,1562034956,83,43.74,-81.71,75.99,12.26
274,quatre cocos,75,MU,1562034957,68,-20.21,57.76,71.6,17.22
275,pousat,,,,,,,,
276,los llanos de aridane,90,ES,1562034957,64,28.66,-17.92,71.6,17.22
277,avarua,38,CK,1562034957,57,-21.21,-159.78,75.2,14.99
278,ponta delgada,40,PT,1562034958,88,37.73,-25.67,66.2,1.12
279,sereflikochisar,0,TR,1562034686,61,38.94,33.54,54.64,10.89
280,torbay,90,CA,1562034958,100,47.66,-52.73,54,10.29
281,avera,1,US,1562034959,74,33.19,-82.53,82.99,6.24
282,panaba,0,MX,1562034900,72,21.28,-88.27,82.81,11.43
283,alihe,22,CN,1562034959,30,50.57,123.73,75.07,6.73
284,nizhneyansk,,,,,,,,
285,eyl,29,SO,1562034960,66,7.98,49.82,78.4,31.63
286,houston,1,US,1562034783,69,29.76,-95.37,84,3.36
287,turukhansk,48,RU,1562034960,47,65.8,87.96,69.38,11.79
288,port augusta,0,AU,1562034961,48,-32.49,137.76,62.6,2.24
289,illoqqortoormiut,,,,,,,,
290,grand gaube,75,MU,1562034961,68,-20.01,57.66,71.6,17.22
291,bay roberts,90,CA,1562034963,100,47.58,-53.28,54,10.29
292,lengshuitan,0,CN,1562034690,61,26.41,111.6,86.37,7.25
293,bollnas,96,SE,1562034963,69,61.35,16.39,45.35,12.37
294,lhuntshi,,,,,,,,
295,marawi,100,PH,1562034964,79,8,124.29,82.99,5.99
296,gayny,79,RU,1562034964,90,60.3,54.33,58.83,3.49
297,shubarshi,0,KZ,1562034965,61,48.59,57.19,60.65,16.58
298,fuxin,68,CN,1562034965,24,42.02,121.65,88.96,10.58
299,novobirilyussy,0,RU,1562034965,56,56.95,90.69,74.69,3.74
300,gat,30,SN,1562034967,88,14.69,-16.54,75.2,5.82
301,okoneshnikovo,0,RU,1562034967,69,54.84,75.08,65.87,4.81
302,saint-augustin,90,CA,1562034967,68,45.63,-73.98,75.99,5.82
303,souillac,0,FR,1562034968,68,45.6,-0.6,70,6.93
304,fare,75,PF,1562034968,78,-16.7,-151.02,76.87,26.8
305,griffith,0,AU,1562034968,62,-34.29,146.06,55.4,5.82
306,tura,67,RU,1562034695,56,64.27,100.22,73.75,10.65
307,jiddah,,,,,,,,
308,west odessa,1,US,1562034696,29,31.84,-102.48,91.4,9.17
309,pangnirtung,79,CA,1562034696,35,66.15,-65.72,51.78,3.06
310,salinopolis,72,BR,1562034696,75,-0.61,-47.36,82.38,14.74
311,kyra,,,,,,,,
312,dhilwan,0,IN,1562034970,20,30.78,76.19,101.26,5.21
313,gamboula,100,CF,1562034697,95,4.12,15.14,68.98,1.79
314,esmeraldas,0,BR,1562034970,77,-19.76,-44.31,66.2,1.12
315,saint-pierre,0,FR,1562034971,87,48.95,4.24,53.6,6.93
316,igrim,33,RU,1562034971,48,63.19,64.42,72.93,6.78
317,santa cruz de tenerife,75,ES,1562034790,87,28.47,-16.25,70,19.46
318,dunaszentgyorgy,0,HU,1562034699,83,46.53,18.82,67.87,2.53
319,pevek,91,RU,1562034972,95,69.7,170.27,33.67,2.55
320,gizo,0,IL,1562034700,69,31.8,34.94,73.4,4.7
321,calama,0,CL,1562034972,21,-22.46,-68.93,48.2,12.75
322,vila franca do campo,40,PT,1562034973,88,37.72,-25.43,66.2,1.12
323,ankang,99,CN,1562034973,41,32.73,108.99,83.06,4.41
324,khawhai,100,IN,1562034973,99,23.52,93.19,70.42,2.06
325,dzhuryn,0,UA,1562034974,82,49.03,25.58,72,4.47
326,dingle,100,PH,1562034948,79,11,122.67,80.58,5.19
327,tromso,75,NO,1562034872,81,69.65,18.96,44.6,17.22
328,barsovo,0,RU,1562034974,53,61.17,73.17,71.6,2.24
329,port hueneme,1,US,1562034704,82,34.15,-119.2,82.99,8.05
330,rathdrum,75,IE,1562034975,93,52.93,-6.23,55,8.05
331,cabra,0,ES,1562034975,68,37.47,-4.43,68,2.24
332,kapoeta,,,,,,,,
333,hamilton,40,CA,1562034976,73,43.26,-79.87,75.2,8.05
334,sept-iles,20,CA,1562034904,93,50.2,-66.38,55.4,3.36
335,umm lajj,0,SA,1562034977,72,25.02,37.27,83.55,2.73
336,mount isa,0,AU,1562034977,22,-20.73,139.49,75.2,12.75
337,auki,93,NG,1562034977,80,12.18,6.51,77.34,13.18
338,teya,20,MX,1562034978,74,21.05,-89.07,86,8.05
339,byron bay,100,AU,1562034706,68,-28.65,153.62,71.01,8.05
340,general roca,40,AR,1562034978,65,-39.03,-67.58,46.4,4.7
341,te anau,94,NZ,1562034979,84,-45.41,167.72,50.37,3.71
342,kavieng,11,PG,1562034979,73,-2.57,150.8,83.19,8.97
343,deputatskiy,95,RU,1562034979,70,69.3,139.9,49.53,9.98
344,juba,0,EE,1562034708,82,57.82,26.93,59,11.41
345,iqaluit,20,CA,1562034980,75,63.75,-68.52,42.8,5.82
346,tomohon,20,ID,1562034980,62,1.33,124.84,87.8,3.36
347,tskaltubo,0,GE,1562034709,82,42.33,42.6,60.8,5.82
348,tuktoyaktuk,90,CA,1562034981,93,69.44,-133.03,53.6,11.41
349,port macquarie,72,AU,1562034981,59,-31.43,152.91,73,4.7
350,padang,57,ID,1562034982,76,-0.92,100.36,81.33,2.71
351,vestbygda,,,,,,,,
352,cayenne,46,GF,1562034983,94,4.94,-52.33,77,3.91
353,ust-nera,99,RU,1562034712,60,64.57,143.24,56.55,17.98
354,maniitsoq,99,GL,1562034983,86,65.42,-52.9,41.25,5.57
355,deniliquin,0,AU,1562034984,68,-35.53,144.96,55.99,5.01
356,yabrud,0,SY,1562034984,44,33.97,36.66,60.8,1.7
357,dzaoudzi,0,YT,1562034713,78,-12.79,45.27,77,11.41
358,zholymbet,100,KZ,1562034985,60,51.74,71.71,61.53,18.32
359,chokurdakh,100,RU,1562034985,55,70.62,147.9,54.93,9.62
360,cleveland,1,US,1562034901,57,41.51,-81.69,82.4,3.36
361,emba,0,CY,1562034985,73,34.81,32.42,71.6,8.05
362,utiroa,,,,,,,,
363,mayo,90,CA,1562034986,100,63.59,-135.9,60.8,3.36
364,meadow lake,100,CA,1562034721,78,54.13,-108.44,49.18,6.71
365,tumannyy,,,,,,,,
366,mazyr,100,BY,1562034987,93,52.05,29.27,63.19,1.28
367,xuddur,13,SO,1562034987,84,4.12,43.89,71.29,18.72
368,klaksvik,88,FO,1562034987,93,62.23,-6.59,42.8,8.05
369,luxor,0,EG,1562034988,37,25.7,32.65,84.2,2.24
370,mangrol,40,IN,1562034717,78,25.33,76.51,82.4,12.39
371,arti,100,RU,1562034988,95,56.43,58.53,56.87,13.04
372,kijang,0,KR,1562034988,51,35.24,129.21,82.4,8.05
373,lovozero,100,RU,1562034989,81,68.01,35.02,48.95,16.17
374,nordlingen,,,,,,,,
375,palmerston,0,AU,1562034989,37,-12.49,130.99,84,12.75
376,isla mujeres,40,MX,1562034876,83,21.23,-86.73,82.4,4.7
377,progreso,0,UY,1562034990,80,-34.68,-56.22,48,11.41
378,arak,0,IR,1562034990,48,34.1,49.69,62.59,4.43
379,jagraon,0,IN,1562034990,19,30.8,75.48,104.77,3.09
380,fortuna foothills,1,US,1562034991,12,32.66,-114.41,105.8,13.87
381,dortyol,0,TR,1562034991,68,36.86,36.23,73.99,2.24
382,mahebourg,75,MU,1562034992,68,-20.41,57.7,71.6,17.22
383,longlac,,,,,,,,
384,vardo,1,US,1562034990,68,39.62,-77.74,71.6,4.5
385,kamen-rybolov,100,RU,1562034993,83,44.75,132.04,66.37,0.47
386,rio gallegos,40,AR,1562034993,86,-51.62,-69.22,33.8,11.41
387,sentyabrskiy,,,,,,,,
388,norman wells,75,CA,1562034994,31,65.28,-126.83,73.4,4.7
389,meyungs,,,,,,,,
390,nenjiang,45,CN,1562034723,60,49.17,125.23,72.69,7.4
391,alice springs,0,AU,1562034974,20,-23.7,133.88,71.6,4.7
392,bambanglipuro,30,ID,1562034995,79,-7.95,110.28,76.09,3.15
393,shitanjing,0,CN,1562034995,18,39.23,106.34,93.99,5.99
394,husavik,0,CA,1562034724,59,50.56,-96.99,72,3
395,asyut,0,EG,1562034725,13,27.18,31.19,98.6,2.24
396,el faiyum,,,,,,,,
397,lieksa,0,FI,1562034725,91,63.32,30.02,53.63,4.07
398,muzquiz,,,,,,,,
399,santa isabel do rio negro,68,BR,1562034997,98,-0.41,-65.02,73.03,1.19
400,russell,1,US,1562034998,48,38.9,-98.86,82.4,11.41
401,sola,0,TZ,1562034998,58,-3.17,33.8,61.48,3.49
402,quelimane,90,MZ,1562034998,93,-17.88,36.89,66.2,3.33
403,humboldt,100,CA,1562034999,86,52.21,-105.12,49.33,10.98
404,lodja,1,CD,1562034728,53,-3.52,23.6,69.04,0.38
405,la rioja,0,AR,1562034999,75,-29.41,-66.86,42.36,1.39
406,kisangani,100,CD,1562034729,82,0.52,25.21,71.47,1.68
407,maumere,15,ID,1562035000,60,-8.63,122.22,82.83,5.7
408,grindavik,0,IS,1562035000,70,63.84,-22.43,48.2,8.05
409,pisco,0,PE,1562034807,88,-13.71,-76.2,62.6,12.75
410,tucurui,0,BR,1562034970,71,-3.77,-49.67,75.07,2.53
411,ixtapa,20,MX,1562035002,55,20.71,-105.21,86,6.93
412,gamba,75,CN,1562035003,43,28.28,88.52,49.8,4.88
413,halalo,,,,,,,,
414,erdenet,70,MN,1562035003,59,49.03,104.04,65.56,8.68
415,dzilam gonzalez,0,MX,1562035003,83,21.28,-88.93,81.01,22.53
416,khonuu,,,,,,,,
417,the valley,40,AI,1562035004,78,18.22,-63.06,82.4,8.05
418,bodo,53,CI,1562035004,99,5.91,-4.68,71.45,2.51
419,kloulklubed,90,PW,1562035005,94,7.04,134.26,75.2,7.67
420,gurlan,0,UZ,1562034733,77,41.84,60.39,69.8,9.17
421,bela vista de goias,0,BR,1562035005,82,-16.97,-48.95,64.4,3.89
422,lincoln,0,GB,1562034928,87,53.23,-0.54,53.01,8.05
423,obluche,,,,,,,,
424,zeya,34,RU,1562035006,52,53.74,127.27,64.48,10.69
425,smidovich,100,RU,1562035007,80,48.6,133.81,69.54,4.47
426,praia,0,BR,1562034924,87,-20.25,-43.81,66.2,0.83
427,tidore,,,,,,,,
428,puerto el triunfo,20,SV,1562035007,83,13.27,-88.55,80.6,3.33
429,taoudenni,0,ML,1562035008,11,22.68,-3.98,92.87,2.95
430,peleduy,78,RU,1562035008,31,59.63,112.75,86.8,3.74
431,berlevag,92,NO,1562035008,76,70.86,29.09,48.07,10.49
432,margate,20,AU,1562035009,54,-43.03,147.26,53.6,26.4
433,thai nguyen,40,VN,1562035009,89,21.59,105.84,86,6.93
434,hay river,75,CA,1562034738,81,60.82,-115.79,51.8,26.4
435,iquique,90,CL,1562035010,77,-20.22,-70.14,60.8,3.36
436,piacabucu,13,BR,1562035010,88,-10.41,-36.43,73.99,7.67
437,miquelon,100,PM,1562035010,96,47.1,-56.38,52.33,25.68
438,sabha,0,LY,1562034805,36,27.03,14.43,78.47,11.23
439,faya,0,SA,1562035011,35,18.39,42.45,73.4,4.7
440,waipawa,66,NZ,1562035011,75,-39.94,176.59,57,7.9
441,muros,90,ES,1562035011,87,42.77,-9.06,64.99,11.41
442,kindersley,75,CA,1562035012,66,51.47,-109.16,53.6,20.8
443,ilulissat,75,GL,1562035012,75,69.22,-51.1,41,3.36
444,huacho,98,PE,1562035012,88,-11.11,-77.61,62.95,17.36
445,kungurtug,100,RU,1562035013,48,50.6,97.53,63.73,3.98
446,isangel,75,VU,1562034726,69,-19.55,169.27,77,9.17
447,borogontsy,0,RU,1562035013,32,62.67,131.17,71.72,11.18
448,porto novo,0,BR,1562035014,87,-23.68,-45.44,60.8,5.03
449,srednekolymsk,86,RU,1562034744,31,67.46,153.71,71.04,8.43
450,hobyo,80,SO,1562035015,68,5.35,48.53,79.12,19.55
451,kahului,20,US,1562035015,54,20.89,-156.47,84.2,16.11
452,dukat,0,AL,1562035016,61,40.25,19.57,75,1.01
453,cochrane,99,CL,1562034809,98,-47.25,-72.57,27.03,3.11
454,artyk,,,,,,,,
455,teahupoo,75,PF,1562035016,69,-17.83,-149.27,78.8,4.7
456,oriximina,100,BR,1562034932,75,-1.77,-55.87,80.02,3.74
457,black river,20,JM,1562034812,79,18.03,-77.85,84.2,4.7
458,blagoveshchenka,0,RU,1562034748,84,52.83,79.87,53.5,3.27
459,adrar,0,DZ,1562035017,11,27.87,-0.29,87.8,9.17
460,mhlume,0,SZ,1562035018,41,-26.03,31.81,60.01,1.01
461,yulara,0,AU,1562034749,21,-25.24,130.99,71.6,4.7
462,port-de-paix,,,,,,,,
463,republic,1,US,1562035018,15,48.65,-118.74,87.8,8.05
464,dawei,100,MM,1562035019,78,14.07,98.19,83.46,14.54
465,mantua,0,IT,1562035019,68,45.16,10.79,75.99,5.82
466,harindanga,40,IN,1562035019,94,22.04,88.32,82.4,10.29
467,xai-xai,17,MZ,1562035020,77,-25.04,33.64,66.01,7.07
468,xiamen,75,CN,1562035020,62,24.46,118.07,89.6,8.95
469,nerchinskiy zavod,48,RU,1562035020,29,51.31,119.61,76.45,10.6
470,phan rang,,,,,,,,
471,amapa,40,HN,1562035021,74,15.09,-87.97,84.2,10.29
472,mount gambier,26,AU,1562034774,70,-37.83,140.78,57.19,17.81
473,plouzane,0,FR,1562035021,93,48.38,-4.62,57.99,4.7
474,jalingo,3,NG,1562035022,87,10.3,10.93,74.42,7.61
475,dondo,75,MZ,1562035022,100,-19.62,34.74,68,2.66
476,bilopillya,91,UA,1562035022,93,51.15,34.31,62.52,6.46
477,cidreira,0,BR,1562035023,81,-30.17,-50.22,48.46,4.99
478,somerville,1,US,1562035023,41,40.57,-74.61,80.6,6.93
479,timra,12,SE,1562035023,87,62.49,17.33,48.99,9.17
480,soyo,100,AO,1562035024,80,-6.13,12.37,72.73,8.12
481,urdzhar,,,,,,,,
482,geraldton,20,CA,1562034756,40,49.72,-86.95,71.6,4.7
483,najran,0,SA,1562034756,16,17.54,44.22,86,6.93
484,portland,40,US,1562034884,88,43.66,-70.25,71.6,3.36
485,parana,34,BR,1562034756,83,-7.52,-72.89,74.13,1.7
486,roald,45,NO,1562035025,70,62.58,6.12,46.4,13.87
487,pareora,100,NZ,1562035026,78,-44.49,171.21,48.99,2.93
488,samusu,,,,,,,,
489,gusau,93,NG,1562035026,80,12.17,6.66,77.34,13.18
490,havre-saint-pierre,40,CA,1562035026,82,50.23,-63.6,55.4,6.93
491,attawapiskat,,,,,,,,
492,westport,1,US,1562034993,69,41.14,-73.36,75,6.93
493,umzimvubu,,,,,,,,
494,nioro,37,GM,1562035027,74,13.79,-15.05,78.45,7.61
495,riberalta,10,BO,1562035028,67,-11,-66.08,75.84,1.45
496,aripuana,0,BR,1562034759,63,-9.17,-60.63,74.65,1.95
497,sungaipenuh,99,ID,1562035028,60,-2.08,101.38,84.84,3.09
498,rawannawi,,,,,,,,
499,hualmay,98,PE,1562035029,88,-11.1,-77.61,62.95,17.36
500,satitoa,,,,,,,,
501,prince rupert,90,CA,1562034762,93,54.32,-130.32,57.2,5.82
502,asau,,,,,,,,
503,palabuhanratu,,,,,,,,
504,skarnes,75,NO,1562035031,81,60.25,11.68,50,8.05
505,xuanhua,0,CN,1562035032,38,40.61,115.04,78.43,4.05
506,los cordobas,100,CO,1562034763,95,8.03,-75.56,73.45,0.83
507,araouane,0,ML,1562034739,34,18.9,-3.53,91.54,14.34
508,aguililla,99,MX,1562035034,87,18.74,-102.79,66.68,8.3
509,jurm,0,AF,1562035034,29,36.86,70.83,71.68,1.72
510,urusha,37,RU,1562034787,36,54.05,122.9,74.2,10.8
511,odienne,0,CI,1562034765,96,9.51,-7.57,71.49,3.22
512,sorsk,100,RU,1562035035,92,54,90.25,52.08,1.83
513,salalah,90,OM,1562035003,79,17.01,54.1,84.2,5.82
514,songea,5,TZ,1562034766,87,-10.68,35.65,60.8,2.24
515,takahashi,75,JP,1562034766,88,34.82,133.52,80.01,3.36
516,evensk,100,RU,1562034977,87,61.92,159.24,51.16,9.33
517,fortuna,20,US,1562035036,72,40.6,-124.16,62.6,11.41
518,ngukurr,,,,,,,,
519,nelson bay,0,AU,1562034941,59,-32.72,152.14,66,8.05
520,abha,0,SA,1562035037,35,18.22,42.5,73.4,4.7
521,huangchuan,14,CN,1562035037,74,24.57,102.46,79,1.66
522,ust-tsilma,97,RU,1562035037,66,65.44,52.15,57.28,3.47
523,mingaora,0,PK,1562034769,25,34.78,72.36,81.89,2.46
524,sri aman,75,MY,1562035038,83,1.24,111.46,84.2,3.36
525,togur,0,RU,1562035038,61,58.36,82.83,72.66,8.03
526,bayan,94,CN,1562035039,49,36.1,102.26,66.19,1.97
527,halacho,20,MX,1562035039,74,20.48,-90.08,86,8.05
528,salym,2,RU,1562035039,50,60.06,71.48,72.1,3.56
529,bireun,87,ID,1562035040,45,5.2,96.7,81.03,1.21
530,benguela,0,AO,1562035040,86,-12.58,13.4,69.04,0.96
531,ryotsu,32,JP,1562035040,69,38.08,138.43,77,6.93
532,jasper,1,US,1562034758,100,33.83,-87.28,82,2.06
533,tunduru,,,,,,,,
534,ye,,,,,,,,
535,tarudant,,,,,,,,
536,yebaishou,68,CN,1562035041,36,41.4,119.64,80.29,10.96
537,laguna,40,BZ,1562034773,88,16.17,-88.94,80.6,3.44
538,mananjary,0,MG,1562034773,81,-19.16,46.8,52.71,3.74
539,kidal,0,ML,1562035042,11,18.44,1.41,90.85,10.25
540,otjimbingwe,0,NA,1562035042,41,-22.35,16.13,40.51,6.06
541,jega,25,NG,1562034774,63,12.22,4.38,84.54,8.52
542,solovetskiy,,,,,,,,
543,saldanha,0,PT,1562035043,71,41.42,-6.55,63.3,4.47
544,hervey bay,40,AU,1562035043,56,-25.3,152.85,78.01,9.17
545,broken hill,0,AU,1562034777,30,-31.97,141.45,57.2,8.05
546,palu,100,ID,1562034778,69,-0.9,119.87,83.46,4.27
547,boysun,0,UZ,1562035044,26,38.2,67.2,74.96,3.47
548,ust-koksa,100,RU,1562035045,61,50.27,85.62,51.43,1.54
549,opuwo,0,NA,1562035045,46,-18.06,13.84,46.61,4.88
550,moindou,90,NC,1562034780,69,-21.69,165.68,75.2,6.93
551,gondar,0,PT,1562035046,82,41.82,-8.78,64.99,5.82
552,raymond,75,CA,1562035047,71,49.47,-112.67,55.4,16.11
553,manali,0,IN,1562035047,58,32.25,77.19,41.5,3.87
554,acapulco,75,MX,1562035047,79,16.86,-99.88,84.2,9.17
555,deer lake,90,CA,1562034783,93,49.18,-57.43,48.2,12.75
556,makakilo city,20,US,1562035048,62,21.35,-158.09,88,8.05
557,tommot,100,RU,1562034783,46,58.97,126.27,72.62,4.03
558,midland,1,US,1562035048,29,32,-102.08,89.6,9.17
559,hecun,100,CN,1562035049,84,29.94,119.31,75.48,4.56
560,nanakuli,20,US,1562035049,62,21.39,-158.15,88,8.05
561,namwala,0,ZM,1562035049,68,-15.75,26.45,47.85,1.97
562,chifeng,31,CN,1562035050,31,42.27,118.96,75.48,4.68
563,komsomolskiy,91,RU,1562035050,65,67.55,63.78,68.37,8.72
564,tautira,75,PF,1562035050,69,-17.73,-149.15,78.8,4.7
565,boffa,100,GN,1562035051,85,10.18,-14.04,78.7,7.45
566,aranos,0,NA,1562035051,58,-24.14,19.11,36.98,6.02
567,smolenka,5,PL,1562034787,94,54.15,22.76,55.57,11.83
568,tula,0,RU,1562035052,92,54.19,37.62,60.13,9.75
569,mecca,0,SA,1562034788,44,21.43,39.83,80.4,8.41
570,parkes,35,AU,1562034774,33,-33.14,148.18,63,8.19
571,touros,20,BR,1562034975,94,-5.2,-35.46,71.6,3.36
572,cabanas,24,BR,1562035053,99,-8.41,-36.34,61.15,4.92
573,preobrazheniye,100,RU,1562035053,72,42.9,133.91,62.14,4.5
574,northam,2,AU,1562034789,72,-31.65,116.67,60.8,8.05
575,cockburn town,52,TC,1562035053,81,21.46,-71.14,81.1,12.73
576,krasnyy chikoy,0,RU,1562034790,35,50.36,108.75,79.12,2.8
577,kismayo,,,,,,,,
578,matamoros,1,US,1562035054,74,25.87,-97.51,84.2,13.87
579,bailen,0,ES,1562035055,71,38.1,-3.78,62.31,5.82
580,altamira,77,BR,1562035055,85,-3.2,-52.21,73.97,0.27
581,kushmurun,,,,,,,,
582,victor harbor,75,AU,1562034791,62,-35.55,138.62,60.01,8.05
583,kangaatsiaq,100,GL,1562035056,90,68.31,-53.46,39.39,8.05
584,denpasar,40,ID,1562035056,83,-8.65,115.22,82.4,11.41
585,wawa,63,NG,1562034792,93,9.9,4.41,74.35,8.93
586,quijingue,0,BR,1562035056,93,-10.75,-39.21,64.48,4.54
587,vredendal,36,ZA,1562035057,87,-31.68,18.49,55.12,18.61
588,the hammocks,40,US,1562035057,74,25.67,-80.44,86,8.05
589,ridgetown,1,CA,1562035057,73,42.44,-81.88,75.99,6.35
590,camacha,75,PT,1562034794,77,33.08,-16.33,69.8,14.99
591,alekseyevsk,0,RU,1562034794,26,57.84,108.35,90.85,4.07
592,richards bay,0,ZA,1562035058,48,-28.77,32.06,71.25,20.27
593,hanzhong,100,CN,1562034795,50,33.08,107.03,81.62,1.61
594,iskateley,0,RU,1562035059,68,67.68,53.15,52.93,9.06
595,sioux lookout,20,CA,1562035059,59,50.1,-91.92,75.2,2.15
596,sauda,82,NO,1562035059,83,59.65,6.35,48,1.99
597,jieshi,100,CN,1562035059,73,22.82,115.83,89.01,6.26
598,thinadhoo,83,MV,1562035060,65,0.53,72.93,83.26,3
599,satoraljaujhely,0,HU,1562035060,77,48.4,21.67,71.6,5.82
600,port-gentil,37,GA,1562035061,87,-0.72,8.78,74.53,15.77
601,kozhva,100,RU,1562035062,96,65.11,57.05,57.97,2.84
602,antofagasta,90,CL,1562034949,87,-23.65,-70.4,55.4,12.75
603,haines junction,95,CA,1562034764,32,60.75,-137.51,76,1.68
604,ogaminana,98,NG,1562035064,98,7.6,6.2,70.06,4.74
605,belur,100,IN,1562035064,89,13.16,75.86,73.36,4.41
606,okato,92,NZ,1562035065,60,-39.19,173.88,61,7
607,placer,90,US,1562034801,71,42.63,-123.32,75.2,5.82
608,takanabe,75,JP,1562035065,94,32.13,131.49,69.8,9.17
609,saint-leu,0,RE,1562035065,68,-21.15,55.28,68,6.93
610,mouila,3,GA,1562035066,88,-1.86,11.06,67.17,0.96
611,charters towers,0,AU,1562035066,40,-20.07,146.27,73,5.61
612,taybad,0,IR,1562035066,45,34.74,60.78,71.92,32.79
613,myitkyina,98,MM,1562035067,97,25.38,97.4,76.17,1.16
614,boo,63,NG,1562034804,95,7.44,8.9,73.74,5.7
615,karratha,0,AU,1562034945,17,-20.74,116.85,80.47,14.36
